[{"name": "MAU micro Finance Bank", "lat": 9.345492416940417, "lon": 12.50601813594931}, {"name": "Admin Block", "lat": 9.344825471025517, "lon": 12.503250096228145}, {"name": "SLS LT1 & 2", "lat": 9.351696011512175, "lon": 12.48553678787726}, {"name": "LT5 and 6", "lat": 9.348583641688878, "lon": 12.498153899074662}, {"name": "Smith LT1", "lat": 9.347609697146915, "lon": 12.49801442422044}, {"name": "CBT Center", "lat": 9.348520123666368, "lon": 12.496211979759792}, {"name": "Smith", "lat": 9.347165069381244, "lon": 12.497445795928263}, {"name": "STSE", "lat": 9.352860496458316, "lon": 12.489538643741357}, {"name": "College of Medical Sciences", "lat": 9.351378424042613, "lon": 12.494012568382297}, {"name": "ICT Center", "lat": 9.346498126654113, "lon": 12.501125786668604}, {"name": "Multi Purpose Hall", "lat": 9.34828722412421, "lon": 12.500342581651598}, {"name": "Ibrahim Babangida Library", "lat": 9.350023380856136, "lon": 12.492564175504123}, {"name": "Department of Food Science", "lat": 9.347990806206194, "lon": 12.494216416251593}, {"name": "School of Agriculture", "lat": 9.347556765297265, "lon": 12.495632622622693}, { "name": "Library", "lat": 9.3339, "lon": 12.4968 },{ "name": "School Clinic", "lat": 9.3352, "lon": 12.4959 },{ "name": "Guidance & Counselling", "lat": 9.3341, "lon": 12.4961 },{ "name": "Security Office", "lat": 9.3335, "lon": 12.4967 }

]